City,Lat,Long,Traffic,Airport,lean,Airport_Name,j_growth,j_g_p,tech_growth,t_g_p,rent,tax_in,t_in_num,Quality of Life,Cultural Fit,Higher Education Institutions,Real Estate Availability
Boston,42.3601,71.0589,7,1,1,Boston-Logan International Airport,0.123107,12.31%,0.052,5.20%,1690,no offered incentive,0,,,,
New York City,40.7128,74.006,2,1,1,"John F. Kennedy International Airport, LaGuardia International Airport",0.02404,2.40%,0.061,6.10%,2090,no offered incentive,0,,,,
Newark,40.7357,74.1724,,1,1,Newark Liberty International Airport,-0.06447,-6.45%,0.061,6.10%,1161,$7 billion,1,,,,
Pittsburgh,40.4406,79.9959,29,1,0,Pittsburgh International Airport,0.00623,0.62%,0.09,9.00%,740,no offered incentive,0,,,,
Philadelphia,39.9526,75.1652,18,1,0,Philadelphia International Airport,0.04938,4.94%,,,970,$2-3 billion,1,,,,
Montgomery County,39.1547,77.2405,,,1,None that meet criteria,0.009969,1.00%,,,1561,$8.5 billion,1,,,,
Washington D.C.,38.9072,77.0369,6,1,1,"Reagan National Airport, Dulles International Airport",0.115801,11.58%,0.019,1.90%,1340,no offered incentive,0,,,,
Raleigh,35.7796,78.6382,83,1,0,Raleigh-Durham International Airport,0.18207,18.21%,0.037,3.70%,962,$50 million,0,,,,
N. Virginia,38.9805,77.2405,,,1,None that meet criteria,,,,,,no offered incentive,0,,,,
Atlanta,33.749,84.388,4,1,0,Hartsfield-Jackson Atlanta International Airport,0.085319,8.53%,0.064,6.40%,1010,$1 billion,1,,,,
Miami,25.7617,80.1918,5,1,0,Miami International Airport,0.090996,9.10%,0.054,5.40%,1060,no offered incentive,0,,,,
Dallas,32.7767,96.797,10,1,0,Dallas/Fort-Worth International Airport,0.115415,11.54%,0.09,9.00%,890,no offered incentive,0,,,,
Austin,30.2672,97.7431,14,1,0,Austin-Bergstrom International Airport,0.24,24.00%,0.161,16.10%,1140,no offered incentive,0,,,,
Nashville,36.1627,86.7816,27,,0,None that meet criteria,0.00000238,0.00%,0.067,6.70%,920,no offered incentive,0,,,,
Los Angeles,34.0522,118.2437,1,1,1,Los Angeles International Airport,0.03407,3.41%,0.065,6.50%,1350,$1 billion,1,,,,
Denver,39.7392,104.9903,21,1,1,Denver International Airport,0.117791,11.78%,0.063,6.30%,1070,$50-100 million,0,,,,
Chicago,41.8781,87.6298,8,1,1,"O'Hare International Aiport, Midway International Airport",0.012785,1.28%,0.058,5.80%,1100,$1.7 billion,1,,,,
Indianapolis,39.7684,86.1581,87,1,0,Indianapolis International Airport,0.019423,1.94%,0.139,13.90%,680,no offered incentive,0,,,,
Columbus,39.9612,82.9988,55,,0,None that meet criteria,0.07309,7.31%,,,740,$2.3 billion,1,,,,
Toronto,43.6532,79.3832,15,1,,Toronto Pearson International Airport,,,,,1300,no offered incentive,0,,,,